[
    {
        "id": 0,
        "name": "Wisozk, Abbott and Sanford Inc.",
        "email": "wisozk-abbott-and-sanford-inc..osinski98@hotmail.com",
        "phone": "1-596-158-8058 x16591",
        "website": "http://www.francisco.net",
        "ip": "46.203.98.73",
        "address": {
            "country": "Sweden",
            "countryCode": "SE",
            "state": "Maryland",
            "city": "Kristopherchester",
            "street": "64401 Priscilla Ports Apt. 526",
            "zip": "59624-5191",
            "geo": {
                "latitude": -73.3201,
                "longitude": -56.311800000000005
            }
        }
    },
    {
        "id": 1,
        "name": "Adams, Koss and Bartell LLC",
        "email": "adams-koss-and-bartell-llc.schiller22@hotmail.com",
        "phone": "714-209-5286 x35036",
        "website": "http://www.leonardhayes.eu",
        "ip": "206.227.230.47",
        "address": {
            "country": "Singapore",
            "countryCode": "SG",
            "state": "New Jersey",
            "city": "Annetteville",
            "street": "11795 Santiago Extensions",
            "zip": "31708-7676",
            "geo": {
                "latitude": 23.444000000000003,
                "longitude": 76.33929999999998
            }
        }
    },
    {
        "id": 2,
        "name": "Jast, Lesch and Ward Corp.",
        "email": "jast-lesch-and-ward-corp.02@gmail.com",
        "phone": "619.690.6836",
        "website": "http://www.lucas-renner.co",
        "ip": "18.204.70.4",
        "address": {
            "country": "French Polynesia",
            "countryCode": "PF",
            "state": "Alaska",
            "city": "East Santos",
            "street": "4392 Shaun Burgs Suite 739",
            "zip": "42893",
            "geo": {
                "latitude": -76.061,
                "longitude": -160.9462
            }
        }
    },
    {
        "id": 3,
        "name": "Beer Ltd.",
        "email": "beer-ltd..yundt22@gmail.com",
        "phone": "225-126-8699 x84280",
        "website": "http://doloresbeahan.biz",
        "ip": "127.180.246.20",
        "address": {
            "country": "Tuvalu",
            "countryCode": "TV",
            "state": "New Jersey",
            "city": "Lake Sabrina",
            "street": "6768 Crist Square",
            "zip": "92507-9528",
            "geo": {
                "latitude": -62.5071,
                "longitude": -100.111
            }
        }
    },
    {
        "id": 4,
        "name": "Cassin-Buckridge Corp.",
        "email": "cassin-buckridge-corp.72@yahoo.com",
        "phone": "679-981-8250 x2231",
        "website": "https://www.beverlybrown.co",
        "ip": "41.83.175.17",
        "address": {
            "country": "Luxembourg",
            "countryCode": "LU",
            "state": "Wisconsin",
            "city": "Klingberg",
            "street": "271 Bahringer Estates",
            "zip": "59339",
            "geo": {
                "latitude": -17.869600000000005,
                "longitude": -90.3566
            }
        }
    },
    {
        "id": 5,
        "name": "VonRueden LLC",
        "email": "vonrueden-llc.hills@gmail.com",
        "phone": "1-803-793-9762 x24690",
        "website": "http://carroll-stokes.net",
        "ip": "40.156.113.100",
        "address": {
            "country": "Moldova",
            "countryCode": "MD",
            "state": "Arizona",
            "city": "East Melissa",
            "street": "65925 Schmeler Glens",
            "zip": "75584-5319",
            "geo": {
                "latitude": 27.4191,
                "longitude": -131.4852
            }
        }
    },
    {
        "id": 6,
        "name": "Smitham-Wintheiser LLC",
        "email": "smitham-wintheiser-llc.watsica83@gmail.com",
        "phone": "(814) 600-3628",
        "website": "http://www.jan.net",
        "ip": "189.128.249.33",
        "address": {
            "country": "Armenia",
            "countryCode": "AM",
            "state": "New Hampshire",
            "city": "D'Amoreberg",
            "street": "9775 Walter Islands Apt. 781",
            "zip": "82840",
            "geo": {
                "latitude": 37.063,
                "longitude": 8.552400000000006
            }
        }
    },
    {
        "id": 7,
        "name": "Tremblay, Legros and Lehner LLC",
        "email": "tremblay-legros-and-lehner-llc69@hotmail.com",
        "phone": "028.601.1278 x6827",
        "website": "http://www.janedaugherty.co",
        "ip": "155.78.236.201",
        "address": {
            "country": "U.S. Outlying Islands",
            "countryCode": "UM",
            "state": "Nebraska",
            "city": "Rooseveltland",
            "street": "757 Traci Throughway",
            "zip": "47715",
            "geo": {
                "latitude": -54.1119,
                "longitude": 130.16719999999998
            }
        }
    },
    {
        "id": 8,
        "name": "Borer-Murazik Corp.",
        "email": "borer-murazik-corp.43@hotmail.com",
        "phone": "1-792-571-4555 x138",
        "website": "http://mary.net",
        "ip": "84.183.233.44",
        "address": {
            "country": "Senegal",
            "countryCode": "SN",
            "state": "Utah",
            "city": "Colleenview",
            "street": "90909 Stehr Road",
            "zip": "72933-7361",
            "geo": {
                "latitude": 0.8559000000000054,
                "longitude": 28.63929999999999
            }
        }
    },
    {
        "id": 9,
        "name": "Bergstrom, Gutmann and Heaney Corp.",
        "email": "bergstrom-gutmann-and-heaney-corp.68@hotmail.com",
        "phone": "1-286-401-1478",
        "website": "https://www.saralittel.org",
        "ip": "82.115.243.251",
        "address": {
            "country": "Northern Mariana Islands",
            "countryCode": "MP",
            "state": "Vermont",
            "city": "East Nicolasburgh",
            "street": "18083 Donnie Trace",
            "zip": "12650",
            "geo": {
                "latitude": -54.3631,
                "longitude": 164.12419999999997
            }
        }
    },
    {
        "id": 10,
        "name": "Schoen-Kris Inc.",
        "email": "schoen-kris-inc..carroll@gmail.com",
        "phone": "1-694-601-5933",
        "website": "http://linda.info",
        "ip": "20.93.152.216",
        "address": {
            "country": "Greenland",
            "countryCode": "GL",
            "state": "New Hampshire",
            "city": "West Joshbury",
            "street": "83833 Wiegand Stream Apt. 126",
            "zip": "24138-9105",
            "geo": {
                "latitude": 0.20900000000000318,
                "longitude": -99.4703
            }
        }
    },
    {
        "id": 11,
        "name": "O'Hara-Zieme LLC",
        "email": "ohara-zieme-llchermann18@gmail.com",
        "phone": "(592) 029-3073 x07590",
        "website": "https://www.hector.net",
        "ip": "154.104.41.181",
        "address": {
            "country": "St. Vincent & Grenadines",
            "countryCode": "VC",
            "state": "Nevada",
            "city": "Eulaborough",
            "street": "0107 Seth Isle Apt. 323",
            "zip": "50110-8194",
            "geo": {
                "latitude": -69.2519,
                "longitude": -74.5287
            }
        }
    },
    {
        "id": 12,
        "name": "Kerluke Ltd.",
        "email": "kerluke-ltd.hermiston69@gmail.com",
        "phone": "927-252-2992 x99283",
        "website": "https://www.traceyconn.com",
        "ip": "124.77.227.133",
        "address": {
            "country": "North Korea",
            "countryCode": "KP",
            "state": "Massachusetts",
            "city": "Manuelberg",
            "street": "1519 Jenkins Junctions Apt. 806",
            "zip": "45303",
            "geo": {
                "latitude": 89.98750000000001,
                "longitude": 114.34530000000001
            }
        }
    },
    {
        "id": 13,
        "name": "Collier, Heidenreich and Windler Inc.",
        "email": "collier-heidenreich-and-windler-inc.82@yahoo.com",
        "phone": "(729) 924-1507",
        "website": "https://www.idakessler.eu",
        "ip": "115.182.30.31",
        "address": {
            "country": "Slovenia",
            "countryCode": "SI",
            "state": "Illinois",
            "city": "South Catherineton",
            "street": "95541 Alexis Rest",
            "zip": "30930-0272",
            "geo": {
                "latitude": 36.2115,
                "longitude": 129.8927
            }
        }
    },
    {
        "id": 14,
        "name": "Oberbrunner LLC",
        "email": "oberbrunner-llcfahey91@gmail.com",
        "phone": "(868) 104-2913 x37780",
        "website": "http://www.mae-skiles.info",
        "ip": "25.88.170.14",
        "address": {
            "country": "Uganda",
            "countryCode": "UG",
            "state": "Florida",
            "city": "Wilmachester",
            "street": "869 Larkin Trafficway Apt. 912",
            "zip": "46691",
            "geo": {
                "latitude": -88.9039,
                "longitude": -54.047399999999996
            }
        }
    },
    {
        "id": 15,
        "name": "Reichert, Raynor and Legros Group",
        "email": "reichert-raynor-and-legros-group25@hotmail.com",
        "phone": "683-706-0923 x9536",
        "website": "http://blakeklocko.info",
        "ip": "32.144.155.126",
        "address": {
            "country": "Latvia",
            "countryCode": "LV",
            "state": "Massachusetts",
            "city": "Connellyside",
            "street": "2793 Brakus Gateway Suite 340",
            "zip": "00621",
            "geo": {
                "latitude": 61.40020000000001,
                "longitude": -62.134600000000006
            }
        }
    },
    {
        "id": 16,
        "name": "Erdman LLC",
        "email": "erdman-llc08@yahoo.com",
        "phone": "1-759-082-6093",
        "website": "https://www.ivan-smitham.org",
        "ip": "76.239.241.246",
        "address": {
            "country": "Albania",
            "countryCode": "AL",
            "state": "Virginia",
            "city": "South Diannestad",
            "street": "17509 Moore Extension",
            "zip": "43525-8598",
            "geo": {
                "latitude": 47.946,
                "longitude": -15.778099999999995
            }
        }
    },
    {
        "id": 17,
        "name": "Marks Corp.",
        "email": "marks-corp..willms24@gmail.com",
        "phone": "1-318-874-1794 x157",
        "website": "https://www.ernest-muller.biz",
        "ip": "104.47.90.112",
        "address": {
            "country": "South Korea",
            "countryCode": "KR",
            "state": "Mississippi",
            "city": "Willmsfurt",
            "street": "418 Crystal Corners Suite 055",
            "zip": "15528",
            "geo": {
                "latitude": -33.3409,
                "longitude": -6.133600000000001
            }
        }
    },
    {
        "id": 18,
        "name": "Cole-Mayer LLC",
        "email": "cole-mayer-llc84@hotmail.com",
        "phone": "032.201.8392",
        "website": "https://kenbrakus.co",
        "ip": "127.26.90.177",
        "address": {
            "country": "Guernsey",
            "countryCode": "GG",
            "state": "Connecticut",
            "city": "Port Jordanfurt",
            "street": "34126 Gerhold Orchard Suite 726",
            "zip": "61641",
            "geo": {
                "latitude": -23.9277,
                "longitude": 31.0505
            }
        }
    },
    {
        "id": 19,
        "name": "Ferry, Ziemann and Stehr LLC",
        "email": "ferry-ziemann-and-stehr-llclegros97@yahoo.com",
        "phone": "123-580-0724",
        "website": "http://luz.org",
        "ip": "48.134.254.244",
        "address": {
            "country": "Vanuatu",
            "countryCode": "VU",
            "state": "Connecticut",
            "city": "East Sueton",
            "street": "5384 Dibbert Spring",
            "zip": "01612-3116",
            "geo": {
                "latitude": 10.115899999999996,
                "longitude": -120.9981
            }
        }
    },
    {
        "id": 20,
        "name": "DuBuque Ltd.",
        "email": "dubuque-ltd..walter@hotmail.com",
        "phone": "737-696-5742",
        "website": "https://www.tiffanynicolas.info",
        "ip": "182.102.15.91",
        "address": {
            "country": "Mauritius",
            "countryCode": "MU",
            "state": "Virginia",
            "city": "Zemlakfurt",
            "street": "8369 Blanca Valley Suite 570",
            "zip": "52029",
            "geo": {
                "latitude": 84.0778,
                "longitude": -57.258300000000006
            }
        }
    },
    {
        "id": 21,
        "name": "Dietrich Corp.",
        "email": "dietrich-corp.schneider15@gmail.com",
        "phone": "873-125-6435",
        "website": "https://www.renee-kunde.biz",
        "ip": "51.43.65.198",
        "address": {
            "country": "Mauritius",
            "countryCode": "MU",
            "state": "Maine",
            "city": "Louiseland",
            "street": "75274 Schoen Fall",
            "zip": "33680",
            "geo": {
                "latitude": -52.6527,
                "longitude": -2.349199999999996
            }
        }
    },
    {
        "id": 22,
        "name": "Bahringer-Paucek Corp.",
        "email": "bahringer-paucek-corp.90@yahoo.com",
        "phone": "274-239-9745 x995",
        "website": "http://www.tedohara.biz",
        "ip": "120.10.179.9",
        "address": {
            "country": "Netherlands",
            "countryCode": "NL",
            "state": "North Dakota",
            "city": "Jaskolskiton",
            "street": "6045 Nathan Heights Suite 249",
            "zip": "04726-4959",
            "geo": {
                "latitude": 55.4033,
                "longitude": -24.129500000000007
            }
        }
    },
    {
        "id": 23,
        "name": "Ziemann Corp.",
        "email": "ziemann-corp..haley62@gmail.com",
        "phone": "972-010-7785",
        "website": "https://www.albert-christiansen.co",
        "ip": "182.69.98.242",
        "address": {
            "country": "Western Sahara",
            "countryCode": "EH",
            "state": "Kansas",
            "city": "Lake Ismaelland",
            "street": "7092 Priscilla Run",
            "zip": "46234",
            "geo": {
                "latitude": 15.132800000000003,
                "longitude": -149.2977
            }
        }
    },
    {
        "id": 24,
        "name": "Wilderman Inc.",
        "email": "wilderman-inc.74@gmail.com",
        "phone": "733-681-3311",
        "website": "http://www.alan.co",
        "ip": "247.112.176.137",
        "address": {
            "country": "South Korea",
            "countryCode": "KR",
            "state": "Kentucky",
            "city": "Martyview",
            "street": "1016 Alice Forks",
            "zip": "55174-0551",
            "geo": {
                "latitude": -68.8557,
                "longitude": 49.260999999999996
            }
        }
    },
    {
        "id": 25,
        "name": "Luettgen, Heathcote and Abbott Inc.",
        "email": "luettgen-heathcote-and-abbott-inc..carroll91@hotmail.com",
        "phone": "1-077-563-8825 x656",
        "website": "https://sarahbeer.eu",
        "ip": "183.32.215.54",
        "address": {
            "country": "Kenya",
            "countryCode": "KE",
            "state": "Virginia",
            "city": "East Dexter",
            "street": "7018 Strosin Hills Suite 903",
            "zip": "23749",
            "geo": {
                "latitude": 63.88239999999999,
                "longitude": -67.5583
            }
        }
    },
    {
        "id": 26,
        "name": "Gottlieb Ltd.",
        "email": "gottlieb-ltd.26@gmail.com",
        "phone": "748-369-4639",
        "website": "https://miranda.eu",
        "ip": "169.111.67.159",
        "address": {
            "country": "Vatican City",
            "countryCode": "VA",
            "state": "Florida",
            "city": "Cassandraville",
            "street": "0423 Borer Land Suite 483",
            "zip": "02833",
            "geo": {
                "latitude": -29.913400000000003,
                "longitude": 144.95409999999998
            }
        }
    },
    {
        "id": 27,
        "name": "O'Reilly Corp.",
        "email": "oreilly-corp..borer@gmail.com",
        "phone": "(682) 384-1181 x11031",
        "website": "https://alfonso-kling.org",
        "ip": "160.13.49.176",
        "address": {
            "country": "Barbados",
            "countryCode": "BB",
            "state": "New York",
            "city": "North Maxinemouth",
            "street": "07569 Wiegand Via",
            "zip": "23034-6112",
            "geo": {
                "latitude": 26.022400000000005,
                "longitude": 86.15410000000003
            }
        }
    },
    {
        "id": 28,
        "name": "Morar LLC",
        "email": "morar-llc31@gmail.com",
        "phone": "581-536-5461 x0534",
        "website": "https://harry.co",
        "ip": "89.112.123.236",
        "address": {
            "country": "Denmark",
            "countryCode": "DK",
            "state": "Georgia",
            "city": "South Fayefort",
            "street": "1626 Joanne Spur Suite 020",
            "zip": "67125",
            "geo": {
                "latitude": -31.9829,
                "longitude": -84.685
            }
        }
    },
    {
        "id": 29,
        "name": "Bosco, Cremin and Monahan Ltd.",
        "email": "bosco-cremin-and-monahan-ltd..steuber@hotmail.com",
        "phone": "452.325.1280",
        "website": "http://www.pearl-thiel.net",
        "ip": "8.113.15.189",
        "address": {
            "country": "Lithuania",
            "countryCode": "LT",
            "state": "West Virginia",
            "city": "Lebsackstad",
            "street": "8307 Feeney Stream Suite 199",
            "zip": "45205-2331",
            "geo": {
                "latitude": -24.901700000000005,
                "longitude": 167.6857
            }
        }
    },
    {
        "id": 30,
        "name": "Schuster Ltd.",
        "email": "schuster-ltd..heller@gmail.com",
        "phone": "285.916.0219",
        "website": "http://www.cynthiagerlach.com",
        "ip": "60.162.167.95",
        "address": {
            "country": "Jordan",
            "countryCode": "JO",
            "state": "Maryland",
            "city": "Pablotown",
            "street": "13160 Koepp Grove Apt. 173",
            "zip": "88058-7287",
            "geo": {
                "latitude": 0.05639999999999645,
                "longitude": 29.64840000000001
            }
        }
    },
    {
        "id": 31,
        "name": "Schneider-Lindgren Ltd.",
        "email": "schneider-lindgren-ltd.bauch35@yahoo.com",
        "phone": "1-179-032-6127 x080",
        "website": "http://www.jerome.co",
        "ip": "157.102.102.26",
        "address": {
            "country": "St. Pierre & Miquelon",
            "countryCode": "PM",
            "state": "Rhode Island",
            "city": "North Jerome",
            "street": "593 Stanton Tunnel",
            "zip": "62982",
            "geo": {
                "latitude": -17.477199999999996,
                "longitude": 83.78199999999998
            }
        }
    },
    {
        "id": 32,
        "name": "O'Hara, Rice and Beer Corp.",
        "email": "ohara-rice-and-beer-corp..little@hotmail.com",
        "phone": "347.118.6355 x3413",
        "website": "https://www.wilbur-thiel.biz",
        "ip": "247.183.208.183",
        "address": {
            "country": "Peru",
            "countryCode": "PE",
            "state": "Oregon",
            "city": "Lake Bethanyview",
            "street": "4283 May Tunnel",
            "zip": "53189",
            "geo": {
                "latitude": -40.3484,
                "longitude": 173.57170000000002
            }
        }
    },
    {
        "id": 33,
        "name": "Nikolaus Group",
        "email": "nikolaus-group.kshlerin06@hotmail.com",
        "phone": "342-451-5708",
        "website": "https://ericaleannon.info",
        "ip": "238.152.52.210",
        "address": {
            "country": "Tanzania",
            "countryCode": "TZ",
            "state": "Kansas",
            "city": "Lake Sheryl",
            "street": "5174 Dan Expressway",
            "zip": "96766-0397",
            "geo": {
                "latitude": 73.79409999999999,
                "longitude": 34.406499999999994
            }
        }
    },
    {
        "id": 34,
        "name": "Kirlin, Goodwin and Dickinson Ltd.",
        "email": "kirlin-goodwin-and-dickinson-ltd.52@yahoo.com",
        "phone": "1-942-844-4193",
        "website": "http://www.salvatore.eu",
        "ip": "2.113.2.136",
        "address": {
            "country": "Iceland",
            "countryCode": "IS",
            "state": "Indiana",
            "city": "Deckowchester",
            "street": "4218 Sonja Ridges",
            "zip": "48286-1810",
            "geo": {
                "latitude": -71.9144,
                "longitude": 174.52229999999997
            }
        }
    },
    {
        "id": 35,
        "name": "Wuckert Group",
        "email": "wuckert-group.anderson33@yahoo.com",
        "phone": "1-149-725-4366 x55636",
        "website": "https://www.rickey.info",
        "ip": "179.26.44.224",
        "address": {
            "country": "Malta",
            "countryCode": "MT",
            "state": "Tennessee",
            "city": "Maxineshire",
            "street": "87759 Jenna Ways Apt. 578",
            "zip": "15566",
            "geo": {
                "latitude": 70.60159999999999,
                "longitude": -169.8405
            }
        }
    },
    {
        "id": 36,
        "name": "Brakus-Abshire Corp.",
        "email": "brakus-abshire-corp..nolan32@gmail.com",
        "phone": "278.393.3700",
        "website": "http://susie-davis.com",
        "ip": "122.111.195.159",
        "address": {
            "country": "Taiwan",
            "countryCode": "TW",
            "state": "South Carolina",
            "city": "New Perry",
            "street": "196 Pacocha Meadow Apt. 282",
            "zip": "93864",
            "geo": {
                "latitude": -70.2507,
                "longitude": -122.5176
            }
        }
    },
    {
        "id": 37,
        "name": "Sawayn Group",
        "email": "sawayn-group.walker@yahoo.com",
        "phone": "1-233-942-7215 x319",
        "website": "http://lester-brown.biz",
        "ip": "31.157.133.30",
        "address": {
            "country": "United Kingdom",
            "countryCode": "GB",
            "state": "Mississippi",
            "city": "Casperland",
            "street": "2811 Bergnaum Meadows Suite 884",
            "zip": "34936-6330",
            "geo": {
                "latitude": 76.26140000000001,
                "longitude": -3.1581999999999937
            }
        }
    },
    {
        "id": 38,
        "name": "Murray Ltd.",
        "email": "murray-ltd..johns70@hotmail.com",
        "phone": "180-655-4730",
        "website": "https://www.robertkuhic.net",
        "ip": "9.126.141.195",
        "address": {
            "country": "United Kingdom",
            "countryCode": "GB",
            "state": "Delaware",
            "city": "Port Amelia",
            "street": "442 Nicolas Passage Suite 737",
            "zip": "86750",
            "geo": {
                "latitude": -23.793999999999997,
                "longitude": -76.9285
            }
        }
    },
    {
        "id": 39,
        "name": "Larkin-Kunde Inc.",
        "email": "larkin-kunde-inc..glover@gmail.com",
        "phone": "(603) 423-1829",
        "website": "http://www.ida.co",
        "ip": "217.191.199.207",
        "address": {
            "country": "Somalia",
            "countryCode": "SO",
            "state": "Ohio",
            "city": "East Bertha",
            "street": "2559 Smitham Hills",
            "zip": "51431-9503",
            "geo": {
                "latitude": 60.31540000000001,
                "longitude": -68.058
            }
        }
    },
    {
        "id": 40,
        "name": "Blanda LLC",
        "email": "blanda-llc.prohaska78@yahoo.com",
        "phone": "002.276.9186 x98250",
        "website": "https://lonnie.biz",
        "ip": "5.254.53.41",
        "address": {
            "country": "Latvia",
            "countryCode": "LV",
            "state": "Nevada",
            "city": "Bergstromland",
            "street": "8078 Beier Ways",
            "zip": "46966-1666",
            "geo": {
                "latitude": -29.2115,
                "longitude": 66.80590000000001
            }
        }
    },
    {
        "id": 41,
        "name": "Schroeder Ltd.",
        "email": "schroeder-ltd..auer@hotmail.com",
        "phone": "476.791.6715 x14882",
        "website": "https://marcrempel.org",
        "ip": "216.195.179.23",
        "address": {
            "country": "Ceuta & Melilla",
            "countryCode": "EA",
            "state": "Illinois",
            "city": "Jastton",
            "street": "8294 Conn Common",
            "zip": "86749",
            "geo": {
                "latitude": 24.981800000000007,
                "longitude": -131.5342
            }
        }
    },
    {
        "id": 42,
        "name": "Cremin, Cole and Wisoky Group",
        "email": "cremin-cole-and-wisoky-group15@hotmail.com",
        "phone": "1-243-913-4118 x0711",
        "website": "https://bonnie.org",
        "ip": "216.123.187.1",
        "address": {
            "country": "Jordan",
            "countryCode": "JO",
            "state": "Florida",
            "city": "Champlinmouth",
            "street": "090 Schuster Circle",
            "zip": "35791",
            "geo": {
                "latitude": 75.5778,
                "longitude": -11.728199999999987
            }
        }
    },
    {
        "id": 43,
        "name": "Bartoletti, Crona and Lemke Ltd.",
        "email": "bartoletti-crona-and-lemke-ltd..mcglynn@gmail.com",
        "phone": "414-758-3705 x0939",
        "website": "https://www.caseysenger.eu",
        "ip": "105.43.132.56",
        "address": {
            "country": "Russia",
            "countryCode": "RU",
            "state": "Minnesota",
            "city": "Rudolphview",
            "street": "5352 Elisa Locks",
            "zip": "65213",
            "geo": {
                "latitude": 35.2509,
                "longitude": 46.9196
            }
        }
    },
    {
        "id": 44,
        "name": "Lockman Group",
        "email": "lockman-group.terry31@yahoo.com",
        "phone": "203-817-4711 x0975",
        "website": "https://annette.net",
        "ip": "105.126.191.147",
        "address": {
            "country": "Ethiopia",
            "countryCode": "ET",
            "state": "Connecticut",
            "city": "Vanview",
            "street": "3633 Monahan Corner",
            "zip": "54526-0958",
            "geo": {
                "latitude": -25.6109,
                "longitude": -102.5892
            }
        }
    },
    {
        "id": 45,
        "name": "Moore, Rowe and Pfannerstill Inc.",
        "email": "moore-rowe-and-pfannerstill-inc.wehner96@gmail.com",
        "phone": "578-519-5931",
        "website": "http://www.gayle.co",
        "ip": "27.96.37.252",
        "address": {
            "country": "Guadeloupe",
            "countryCode": "GP",
            "state": "Tennessee",
            "city": "O'Connellstad",
            "street": "9654 Lynch Rapid",
            "zip": "76561",
            "geo": {
                "latitude": 1.5840000000000032,
                "longitude": -57.3245
            }
        }
    },
    {
        "id": 46,
        "name": "Marquardt-Littel Corp.",
        "email": "marquardt-littel-corp.95@gmail.com",
        "phone": "(836) 937-5515",
        "website": "http://robyn.co",
        "ip": "83.57.195.2",
        "address": {
            "country": "Uganda",
            "countryCode": "UG",
            "state": "Kansas",
            "city": "East Calebland",
            "street": "84591 Reynolds Wells Suite 809",
            "zip": "82677-7323",
            "geo": {
                "latitude": -59.808,
                "longitude": 121.45429999999999
            }
        }
    },
    {
        "id": 47,
        "name": "Emmerich LLC",
        "email": "emmerich-llc66@gmail.com",
        "phone": "464.995.7629 x20317",
        "website": "https://chadwalsh.org",
        "ip": "207.215.177.228",
        "address": {
            "country": "Kazakhstan",
            "countryCode": "KZ",
            "state": "Nevada",
            "city": "Ceciliafurt",
            "street": "051 Kerluke Shoals",
            "zip": "06364-8383",
            "geo": {
                "latitude": 1.2866999999999962,
                "longitude": 73.77189999999999
            }
        }
    },
    {
        "id": 48,
        "name": "Rutherford Inc.",
        "email": "rutherford-inc.12@gmail.com",
        "phone": "515-491-2339 x2477",
        "website": "https://lynn.info",
        "ip": "139.101.251.26",
        "address": {
            "country": "South Georgia & South Sandwich Islands",
            "countryCode": "GS",
            "state": "Arizona",
            "city": "Johnstonmouth",
            "street": "3898 Lynda Track",
            "zip": "66785-8776",
            "geo": {
                "latitude": -45.6179,
                "longitude": -39.69739999999999
            }
        }
    },
    {
        "id": 49,
        "name": "McClure-Wolf Inc.",
        "email": "mcclure-wolf-inc.92@gmail.com",
        "phone": "(068) 828-1358 x99189",
        "website": "http://clydelangworth.org",
        "ip": "132.200.74.132",
        "address": {
            "country": "Palestinian Territories",
            "countryCode": "PS",
            "state": "South Dakota",
            "city": "West Gilberto",
            "street": "6732 Luettgen Glen Apt. 142",
            "zip": "79065-2534",
            "geo": {
                "latitude": 58.5881,
                "longitude": 80.30110000000002
            }
        }
    }
]